[{"id":1,"name":"Kota Kasablanka","type":"Shopping","latitude":-6.2233192,"longitude":106.8404797},{"id":2,"name":"Taman Anggrek","type":"Shopping","latitude":-6.1783723,"longitude":106.7898117},{"id":3,"name":"Central Park","type":"Shopping","latitude":-6.1766743,"longitude":106.7897331},{"id":4,"name":"Grand Indonesia","type":"Shopping","latitude":-6.1951801,"longitude":106.8182525},{"id":5,"name":"Senayan City","type":"Entertainment","latitude":-6.2267248,"longitude":106.795604},{"id":6,"name":"Gandaria City","type":"Entertainment","latitude":-6.2441792,"longitude":106.7813403},{"id":7,"name":"Pondok Indah Mall","type":"Shopping","latitude":-6.2655371,"longitude":106.7821503},{"id":8,"name":"Neo Soho","type":"Shopping","latitude":-6.174963,"longitude":106.7878247},{"id":9,"name":"Aeon Mall","type":"Fashion","latitude":-6.1725153,"longitude":106.9487784},{"id":10,"name":"City Walk","type":"Shopping","latitude":-6.2088205,"longitude":106.8158563}]